name,url,price,base_elevation_ft,peak_elevation_ft,vertical_drop_ft,slope_mi,state,skiable_acres,annual_snowfall,owner,Tram,Gondola,Pulse Gondola,Cabriolet,8-pack,6-pack,Chondola,Detach Quad,Fixed Quad,Triple,Detach Triple,Double,Single,T-Bar,J-Bar,Poma/platter,Ropetow,Carpet,total_lifts,surface_lifts_only,latitude,longitude
49 Degrees North,https://www.skiresort.info/ski-resort/49-degrees-north-mountain-resort/,84.0,3924,5774,1850,42.0,Washington,2325.0,301,CMR Lands,0,0,0,0,0,0,0,1,1,0,0,4,0,0,0,0,0,1,7,No,48.3013648092357,-117.562926562625
Abenaki,https://www.skiresort.info/ski-resort/abenaki/,20.0,591,820,230,1.0,New Hampshire,18.0,,Independent,0,0,0,0,0,0,0,0,0,0,0,0,0,0,0,0,2,0,2,Yes,43.6093782653616,-71.2299884117107
Adventure Mountain,https://www.skiresort.info/ski-resort/adventure-mountain-greenland/,7.0,1237,1362,125,0.2,Michigan,,,Independent,0,0,0,0,0,0,0,0,0,0,0,0,0,0,0,0,1,0,1,Yes,46.7724464400728,-89.0902901496086
Afton Alps,https://www.skiresort.info/ski-resort/afton-alps/,89.0,919,1270,351,5.0,Minnesota,300.0,60,Vail Resorts,0,0,0,0,0,0,0,0,1,2,0,12,0,0,0,0,2,2,19,No,44.8576205018608,-92.788473835517
Alpine Valley (Michigan),https://www.skiresort.info/ski-resort/alpine-valley-white-lake/,61.0,961,1211,249,4.0,Michigan,100.0,20,Wisconsin Resorts,0,0,0,0,0,0,0,0,1,3,0,1,0,0,0,0,2,2,9,No,42.6536253997723,-83.523108876399
Alpine Valley (Ohio),https://www.skiresort.info/ski-resort/alpine-valley-ohio/,59.0,1115,1329,213,2.0,Ohio,72.0,120,Vail Resorts,0,0,0,0,0,0,0,0,2,1,0,0,0,0,0,0,1,1,5,No,41.5268343596115,-81.2600027141888
Alpine Valley (Wisconsin),https://www.skiresort.info/ski-resort/alpine-valley-resort-elkhorn/,78.0,1017,1362,344,2.0,Wisconsin,90.0,80,Wisconsin Resorts,0,0,0,0,0,0,0,3,0,4,0,0,0,0,0,0,2,6,15,No,42.7356907071581,-88.4283824972845
Alta,https://www.skiresort.info/ski-resort/alta/,199.0,8530,10499,1969,44.0,Utah,2614.0,540,Independent,0,0,0,0,0,1,0,3,1,1,0,1,0,0,0,1,1,2,11,No,40.579942027823,-111.619986768103
Alta Sierra,https://www.skiresort.info/ski-resort/alta-sierra-shirley-meadows/,75.0,6686,7087,400,1.0,California,80.0,80,Independent,0,0,0,0,0,0,0,0,0,0,0,2,0,0,0,0,1,0,3,No,35.71129003695,-118.560117456341
Alyeska,https://www.skiresort.info/ski-resort/alyeska-resort-girdwood/,169.0,269,2756,2487,39.0,Alaska,1610.0,650,Independent,1,0,0,0,0,0,0,2,2,0,0,0,0,0,0,0,0,1,6,No,60.9703423974469,-149.097432276847
Andes Tower Hills,https://www.skiresort.info/ski-resort/andes-tower-hills/,60.0,1329,1621,292,2.0,Minnesota,35.0,55,Independent,0,0,0,0,0,0,0,0,1,2,0,0,0,0,0,0,1,2,6,No,45.850690999254,-95.6312052063786
Angel Fire,https://www.skiresort.info/ski-resort/angel-fire/,125.0,8599,10676,2077,47.0,New Mexico,560.0,210,Independent,0,0,0,0,0,0,0,2,1,0,0,3,0,0,0,0,0,2,8,No,36.3865151311332,-105.272091015304
Antelope Butte,https://www.skiresort.info/ski-resort/antelope-butte/,69.0,8399,9400,1001,13.0,Wyoming,225.0,200,Independent,0,0,0,0,0,0,0,0,0,0,0,2,0,0,0,0,0,1,3,No,44.6115668434155,-107.514621362812
Anthony Lakes Mountain Resort,https://www.skiresort.info/ski-resort/anthony-lakes-mountain-resort/,50.0,7100,7999,899,6.0,Oregon,1100.0,300,Independent,0,0,0,0,0,0,0,0,0,1,0,0,0,0,0,0,1,1,3,No,44.9628890567817,-118.233556922865
Appalachian Ski Mountain,https://www.skiresort.info/ski-resort/appalachian-ski-mountain/,79.0,3632,3999,367,3.0,North Carolina,27.0,27,Independent,0,0,0,0,0,0,0,0,2,0,0,1,0,0,0,0,1,2,6,No,36.1743348914397,-81.6625247152887
Arapahoe Basin,https://www.skiresort.info/ski-resort/arapahoe-basin/,189.0,10781,12434,1654,32.0,Colorado,1428.0,350,Alterra,0,0,0,0,0,1,0,2,2,0,0,1,0,0,0,0,1,2,9,No,39.6340336078039,-105.870415777636
Arctic Valley,https://www.skiresort.info/ski-resort/arctic-valley/,55.0,2500,3898,1398,16.0,Alaska,320.0,250,Independent,0,0,0,0,0,0,0,0,0,0,0,2,0,1,0,0,1,0,4,No,61.2466015908083,-149.532587690714
Arizona Snowbowl,https://www.skiresort.info/ski-resort/arizona-snowbowl/,127.0,9199,11499,2300,23.0,Arizona,777.0,260,Mountain Capital Partners,0,0,0,0,0,1,1,0,3,1,0,0,0,0,0,0,0,2,8,No,35.3304395329149,-111.705536396305
Ascutney Mountain,https://www.skiresort.info/ski-resort/ascutney-mountain/,20.0,719,2520,1801,1.0,Vermont,26.0,,Independent,0,0,0,0,0,0,0,0,0,0,0,0,0,1,0,0,1,0,2,Yes,43.4625511141721,-72.4672947870429
Aspen Highlands,https://www.skiresort.info/ski-resort/aspen-highlands/,264.0,8041,11677,3635,84.0,Colorado,1010.0,300,Aspen Skiing Company,0,0,0,0,0,0,0,3,0,2,0,1,0,0,0,0,0,0,6,No,39.1813983732029,-106.856105524982
Aspen Mountain,https://www.skiresort.info/ski-resort/aspen-mountain/,264.0,7946,11214,3268,64.0,Colorado,826.0,300,Aspen Skiing Company,0,1,0,0,0,0,0,2,1,0,1,3,0,0,0,0,0,0,8,No,39.1842152867587,-106.821690810338
Attitash Mountain Resort,https://www.skiresort.info/ski-resort/attitash-mountain-resort/,144.0,600,2349,1749,23.0,New Hampshire,311.0,120,Vail Resorts,0,0,0,0,0,0,0,3,2,2,0,0,0,0,0,0,0,1,8,No,44.0826692333144,-71.2294189159093
Ausblick Ski Club,https://www.skiresort.info/ski-resort/ausblick-sussex/,30.0,968,1148,180,1.0,Wisconsin,10.0,,Independent,0,0,0,0,0,0,0,0,0,1,0,0,0,0,0,0,1,0,2,No,43.1345002931069,-88.264657223581
Badger Mountain,https://www.skiresort.info/ski-resort/badger-mountain/,10.0,2999,3484,486,1.0,Washington,10.0,120,Independent,0,0,0,0,0,0,0,0,0,0,0,0,0,1,0,0,2,0,3,Yes,47.6126974760702,-120.129741684916
Badger Pass,https://www.skiresort.info/ski-resort/badger-pass/,69.0,7201,8005,804,6.0,California,90.0,300,Independent,0,0,0,0,0,0,0,0,0,1,0,3,0,0,0,0,0,0,4,No,37.662217217046,-119.66368957656
Bald Mountain,https://www.skiresort.info/ski-resort/bald-mountain/,25.0,3999,4800,801,6.0,Idaho,140.0,100,Independent,0,0,0,0,0,0,0,0,0,0,0,0,0,1,0,0,1,0,2,Yes,46.570582678996,-115.869627147372
Bear Creek Mountain Resort,https://www.skiresort.info/ski-resort/bear-creek-mountain-resort/,85.0,591,1099,509,6.0,Pennsylvania,86.0,30,Independent,0,0,0,0,0,0,0,0,3,1,0,0,0,0,0,0,0,1,5,No,40.4766121333448,-75.6257066495122
Bear Paw Ski Bowl,https://www.skiresort.info/ski-resort/bear-paw-ski-bowl/,25.0,4199,5279,1079,6.0,Montana,80.0,140,Independent,0,0,0,0,0,0,0,0,0,0,0,1,0,0,0,0,1,0,2,No,48.1643835073863,-109.670176989619
Bear Valley,https://www.skiresort.info/ski-resort/bear-valley/,169.0,6598,8497,1900,42.0,California,1680.0,359,Independent,0,0,0,0,0,1,0,1,1,2,0,2,0,0,0,0,0,2,9,No,38.4924084257156,-120.04436535711
Beartooth Basin,https://www.skiresort.info/ski-resort/beartooth-basin/,50.0,9898,10899,1001,3.0,Wyoming,600.0,,Independent,0,0,0,0,0,0,0,0,0,0,0,0,0,0,0,2,0,0,2,Yes,44.9760407102785,-109.435232900875
Beartown,https://www.skiresort.info/ski-resort/beartown/,24.0,863,997,135,0.5,New York,32.0,,Independent,0,0,0,0,0,0,0,0,0,0,0,0,0,1,0,1,0,0,2,Yes,44.763714789627,-73.5842494720497
Beaver Creek,https://www.skiresort.info/ski-resort/beaver-creek/,329.0,7398,11444,4045,93.0,Colorado,2082.0,325,Vail Resorts,0,2,0,0,0,0,1,12,1,1,0,1,0,0,0,0,0,7,25,No,39.601397968372,-106.528719291705
Beaver Mountain,https://www.skiresort.info/ski-resort/beaver-mountain/,70.0,7201,8858,1657,19.0,Utah,880.0,400,Independent,0,0,0,0,0,0,0,0,0,3,0,1,0,0,0,0,0,2,6,No,41.9679154294829,-111.540667860691
Beech Mountain,https://www.skiresort.info/ski-resort/beech-mountain/,79.0,4672,5505,833,9.0,North Carolina,95.0,84,Independent,0,0,0,0,0,0,0,0,4,0,0,2,0,0,0,0,1,2,9,No,36.1946449807837,-81.8782671370259
Belleayre Mountain,https://www.skiresort.info/ski-resort/belleayre-mountain/,114.0,2024,3428,1404,12.0,New York,171.0,141,New York State,0,1,0,0,0,0,0,1,3,0,0,0,0,0,0,0,0,4,9,No,42.1409475000713,-74.5020555965859
Berkshire East,https://www.skiresort.info/ski-resort/berkshire-east/,99.0,659,1841,1181,8.0,Massachusetts,180.0,120,The Schaefer Family,0,0,0,0,0,0,0,1,2,0,0,1,0,0,0,0,0,2,6,No,42.6208879427655,-72.8768560536622
Big Bear at Masthope Mountain,https://www.skiresort.info/ski-resort/big-bear-at-masthope-mountain/,78.0,722,1286,564,4.0,Pennsylvania,26.0,50,Independent,0,0,0,0,0,0,0,0,0,0,0,4,0,0,0,0,0,3,7,No,41.5237095917575,-75.024579805837
Big Bear: Bear Mountain,https://www.skiresort.info/ski-resort/bear-mountain-big-bear-lake/,169.0,7139,8806,1667,17.0,California,198.0,100,Alterra,0,0,0,0,0,1,0,2,0,2,0,2,0,0,0,0,0,4,11,No,34.2279780828159,-116.86089636389
Big Bear: Snow Summit,https://www.skiresort.info/ski-resort/snow-summit-big-bear-lake/,169.0,6988,8202,1214,18.0,California,240.0,100,Alterra,0,0,0,0,0,0,0,2,2,2,0,4,0,0,0,0,0,5,15,No,34.2358206937449,-116.889253309291
Big Bear: Snow Valley,https://www.skiresort.info/ski-resort/snow-valley/,169.0,6726,7841,1115,21.0,California,240.0,160,Alterra,0,0,0,0,0,1,0,0,0,4,0,4,0,0,0,0,0,2,11,No,34.2245705198959,-117.035519019636
Big Boulder,https://www.skiresort.info/ski-resort/big-boulder/,105.0,1699,2175,476,3.0,Pennsylvania,55.0,50,Vail Resorts,0,0,0,0,0,0,0,0,2,1,0,1,0,0,0,0,0,1,5,No,41.0497914194315,-75.6006871876771
Big Moose,https://www.skiresort.info/ski-resort/big-squaw/,40.0,1325,1896,571,5.0,Maine,,136,Independent,0,0,0,0,0,0,0,0,0,1,0,0,0,0,0,0,0,1,2,No,45.5064963517218,-69.7018982148919
Big Powderhorn Mountain,https://www.skiresort.info/ski-resort/big-powderhorn-mountain/,89.0,1148,1772,623,6.0,Michigan,253.0,214,Independent,0,0,0,0,0,0,0,0,0,0,0,9,0,0,0,0,1,0,10,No,46.5090445551297,-90.0946769349822
Big Sky Resort,https://www.skiresort.info/ski-resort/big-sky-resort/,275.0,6801,11165,4364,155.0,Montana,5800.0,400,Boyne Resorts,1,2,0,0,2,2,0,4,3,9,0,4,0,0,0,3,1,8,39,No,45.2850349517533,-111.402136915504
BigRock Mountain,https://www.skiresort.info/ski-resort/bigrock-mountain/,60.0,656,1634,978,12.0,Maine,90.0,100,Independent,0,0,0,0,0,0,0,0,1,1,0,1,0,0,0,0,0,1,4,No,46.5219754018494,-67.8287422553209
Bittersweet,https://www.skiresort.info/ski-resort/bittersweet/,72.0,715,1063,348,4.0,Michigan,100.0,90,Wisconsin Resorts,0,0,0,0,0,0,0,2,0,3,0,1,0,0,0,0,2,3,11,No,42.4667711702261,-85.757892883055
Black Mountain – Jackson,https://www.skiresort.info/ski-resort/black-mountain-jackson/,99.0,1234,2247,1014,7.0,New Hampshire,143.0,125,Independent,0,0,0,0,0,0,0,0,0,1,0,1,0,0,1,1,1,0,5,No,44.1666742645383,-71.1643961519989
Black Mountain – Rumford,https://www.skiresort.info/ski-resort/black-mountain-rumford/,60.0,1001,2100,1099,9.0,Maine,300.0,120,Independent,0,0,0,0,0,0,0,0,0,1,0,1,0,1,0,0,1,0,4,No,44.5768679486146,-70.6134405916493
Blacktail Mountain,https://www.skiresort.info/ski-resort/blacktail-mountain/,80.0,5338,6778,1440,11.0,Montana,1000.0,250,Independent,0,0,0,0,0,0,0,0,0,1,0,2,0,0,0,0,0,1,4,No,48.0149080958699,-114.369770983142
Blue Hills,https://www.skiresort.info/ski-resort/blue-hills/,75.0,262,591,328,2.0,Massachusetts,60.0,,Independent,0,0,0,0,0,0,0,0,0,0,0,1,0,0,0,0,0,2,3,No,42.2155158957154,-71.1190765610771
Blue Knob,https://www.skiresort.info/ski-resort/blue-knob/,90.0,2080,3150,1070,10.0,Pennsylvania,100.0,120,Independent,0,0,0,0,0,0,0,0,0,2,0,2,0,0,0,0,0,1,5,No,40.288527305399,-78.5630545423995
Blue Mountain,https://www.skiresort.info/ski-resort/blue-mountain/,99.0,459,1542,1083,11.0,Pennsylvania,164.0,33,Independent,0,0,0,0,0,2,0,1,0,1,0,1,0,0,0,0,0,7,12,No,40.8106478458437,-75.5206597973621
Bluewood,https://www.skiresort.info/ski-resort/bluewood/,65.0,4544,5669,1125,7.0,Washington,355.0,300,Independent,0,0,0,0,0,0,0,1,0,1,0,0,0,0,0,0,0,2,4,No,46.0822970103602,-117.850866940001
Bogus Basin,https://www.skiresort.info/ski-resort/bogus-basin/,79.0,5797,7582,1785,31.0,Idaho,2600.0,250,Independent,0,0,0,0,0,0,0,4,2,0,0,1,0,0,0,0,0,3,10,No,43.7644278050647,-116.101973121779
Bolton Valley,https://www.skiresort.info/ski-resort/bolton-valley/,119.0,1447,3150,1703,19.0,Vermont,300.0,300,Independent,0,0,0,0,0,0,0,0,2,0,0,3,0,0,0,0,1,0,6,No,44.420850797586,-72.8508535743811
Boreal,https://www.skiresort.info/ski-resort/boreal/,119.0,7201,7733,531,12.0,California,380.0,400,Powdr,0,0,0,0,0,0,0,1,2,3,0,0,0,0,0,0,0,2,8,No,39.3357225439072,-120.350519961207
Boston Mills,https://www.skiresort.info/ski-resort/boston-mills/,88.0,656,886,230,1.0,Ohio,40.0,54,Vail Resorts,0,0,0,0,0,0,0,0,1,4,0,1,0,0,0,0,0,1,7,No,41.2650773714258,-81.564551864819
Bottineau Winter Park,https://www.skiresort.info/ski-resort/bottineau-winter-park/,45.0,2274,2448,174,1.0,North Dakota,40.0,18,Independent,0,0,0,0,0,0,0,0,0,1,0,0,0,1,0,0,2,2,6,No,48.9506456513199,-100.474577093826
Bousquet,https://www.skiresort.info/ski-resort/bousquet/,80.0,1109,1857,748,5.0,Massachusetts,200.0,83,Independent,0,0,0,0,0,0,0,0,0,1,0,1,0,0,0,0,0,1,3,No,42.4190828508367,-73.2771992181888
Boyce Park,https://www.skiresort.info/ski-resort/boyce-park/,25.0,1115,1247,131,1.0,Pennsylvania,25.0,36,Independent,0,0,0,0,0,0,0,0,0,0,0,1,0,0,0,0,0,1,2,No,40.4613808841664,-79.7471179674883
Boyne Mountain,https://www.skiresort.info/ski-resort/boyne-mountain/,110.0,620,1119,499,9.0,Michigan,435.0,140,Boyne Resorts,0,0,0,0,1,1,0,0,4,1,0,2,0,0,0,0,0,1,10,No,45.1626107136863,-84.9303885165529
Bradford,https://www.skiresort.info/ski-resort/bradford/,69.0,33,262,230,2.0,Massachusetts,48.0,,Independent,0,0,0,0,0,0,0,0,0,3,0,0,0,1,0,0,3,3,10,No,42.7444830187125,-71.0559975935861
Brandywine,https://www.skiresort.info/ski-resort/brandywine/,88.0,623,886,262,1.0,Ohio,40.0,54,Vail Resorts,0,0,0,0,0,0,0,0,3,2,0,0,0,0,0,0,1,1,7,No,41.2841089989265,-81.5520691820093
Brantling,https://www.skiresort.info/ski-resort/brantling/,34.0,459,689,230,1.0,New York,36.0,100,Independent,0,0,0,0,0,0,0,0,0,0,0,0,0,1,0,0,5,0,6,Yes,43.1493980673562,-77.065462440144
Breckenridge,https://www.skiresort.info/ski-resort/breckenridge/,299.0,9600,12841,3241,95.0,Colorado,2908.0,353,Vail Resorts,0,1,0,0,0,5,0,8,1,1,0,4,0,1,0,3,0,11,35,No,39.4803469507199,-106.06576639861
Bretton Woods,https://www.skiresort.info/ski-resort/bretton-woods/,129.0,1601,3100,1499,35.0,New Hampshire,464.0,200,Independent,0,1,0,0,0,0,0,4,1,0,0,0,0,1,0,0,0,2,9,No,44.2592312355739,-71.4606135125541
Brian Head,https://www.skiresort.info/ski-resort/brian-head/,97.0,9600,10919,1319,28.0,Utah,650.0,360,Mountain Capital Partners,0,0,0,0,0,0,0,2,0,5,0,1,0,0,0,0,0,2,10,No,37.7020031192772,-112.849999461276
Bridger Bowl,https://www.skiresort.info/ski-resort/bridger-bowl-bozeman/,97.0,6102,8799,2697,44.0,Montana,2000.0,300,Independent,0,0,0,0,0,0,0,0,1,6,0,1,0,0,0,1,0,2,11,No,45.8170869826085,-110.896564759054
Brighton,https://www.skiresort.info/ski-resort/brighton/,159.0,8750,10627,1877,41.0,Utah,1050.0,500,Boyne Resorts,0,0,0,0,0,1,0,3,1,1,0,0,0,0,0,0,0,2,8,No,40.5983453073401,-111.583744867119
Bristol Mountain,https://www.skiresort.info/ski-resort/bristol-mountain/,90.0,997,2198,1201,12.0,New York,138.0,130,Independent,0,0,0,0,0,0,0,2,1,1,0,1,0,0,0,0,0,2,7,No,42.7450030256251,-77.4046326684485
Bromley Mountain,https://www.skiresort.info/ski-resort/bromley-mountain/,96.0,1949,3284,1335,28.0,Vermont,178.0,145,Independent,0,0,0,0,0,0,0,1,1,0,0,4,0,1,0,0,0,2,9,No,43.2136153886941,-72.9350896745236
Bruce Mound,https://www.skiresort.info/ski-resort/bruce-mound/,27.0,984,1312,328,3.0,Wisconsin,40.0,45,Independent,0,0,0,0,0,0,0,0,0,1,0,0,0,2,0,0,3,0,6,No,44.4461971176846,-90.7855479437797
Brundage Mountain,https://www.skiresort.info/ski-resort/brundage-mountain/,125.0,5840,7638,1798,19.0,Idaho,1920.0,320,Independent,0,0,0,0,0,0,0,2,0,3,0,0,0,0,0,0,0,1,6,No,45.004595879371,-116.154873443202
Bryce Resort,https://www.skiresort.info/ski-resort/bryce-resort/,80.0,1247,1749,502,3.0,Virginia,50.0,30,Independent,0,0,0,0,0,0,0,0,3,0,0,0,0,0,0,0,0,2,5,No,38.8170206847087,-78.7664647797194
Buck Hill,https://www.skiresort.info/ski-resort/buck-hill-ski-area/,59.0,951,1217,266,1.0,Minnesota,45.0,60,Independent,0,0,0,0,0,0,0,0,2,1,0,0,0,0,0,0,4,2,9,No,44.7245161906983,-93.2838130781488
Buena Vista,https://www.skiresort.info/ski-resort/buena-vista/,52.0,1312,1542,230,2.0,Minnesota,30.0,78,Independent,0,0,0,0,0,0,0,0,0,2,0,2,0,0,0,0,1,0,5,No,47.6575801557123,-94.8794756314242
Buffalo Ski Center,https://www.skiresort.info/ski-resort/buffalo/,57.0,1007,1483,476,7.0,New York,300.0,,Independent,0,0,0,0,0,0,0,0,0,0,0,2,0,2,0,0,1,1,6,No,42.6817834596537,-78.6912460695517
Burke Mountain,https://www.skiresort.info/ski-resort/burke-mountain/,89.0,1217,3199,1982,6.0,Vermont,178.0,217,Independent,0,0,0,0,0,0,0,2,0,0,0,0,0,1,1,0,0,1,5,No,44.5875679421193,-71.9162141707593
Buttermilk Mountain,https://www.skiresort.info/ski-resort/buttermilk-mountain/,264.0,7871,9902,2031,21.0,Colorado,435.0,200,Aspen Skiing Company,0,0,0,0,0,0,0,3,0,0,0,1,0,0,0,0,1,1,6,No,39.2047973615625,-106.859022975074
Butternut,https://www.skiresort.info/ski-resort/butternut/,85.0,820,1772,951,14.0,Massachusetts,110.0,110,Independent,0,0,0,0,0,0,0,0,5,0,0,0,0,0,0,0,0,4,9,No,42.1828719137424,-73.3200574015584
Caberfae Peaks,https://www.skiresort.info/ski-resort/caberfae-peaks/,79.0,1171,1532,361,7.0,Michigan,200.0,140,Independent,0,0,0,0,0,0,0,0,1,3,0,0,0,0,0,0,0,1,5,No,44.2445781127255,-85.720540316803
Camden Snow Bowl,https://www.skiresort.info/ski-resort/camden-snow-bowl/,52.0,236,1083,846,4.0,Maine,100.0,50,Independent,0,0,0,0,0,0,0,0,0,1,0,1,0,0,0,0,0,1,3,No,44.2166095605337,-69.1345024591333
Camelback,https://www.skiresort.info/ski-resort/camelback/,99.0,1247,2044,797,21.0,Pennsylvania,160.0,50,Independent,0,0,0,0,0,1,0,1,1,3,0,3,0,0,0,0,0,4,13,No,41.0511315901175,-75.3481292219498
Camp 10,https://www.skiresort.info/ski-resort/camp-10/,52.0,1509,1739,230,2.0,Wisconsin,120.0,60,Independent,0,0,0,0,0,0,0,0,0,0,0,1,0,2,0,0,1,0,4,No,45.5500994946087,-89.5038307965984
Campgaw Mountain,https://www.skiresort.info/ski-resort/campgaw-mountain/,65.0,469,712,243,1.0,New Jersey,23.0,45,Independent,0,0,0,0,0,0,0,0,0,0,0,2,0,0,0,0,0,3,5,No,41.0589197289547,-74.1951353648283
Campton Mountain,https://www.skiresort.info/ski-resort/campton-mountain/,40.0,1188,1427,240,1.0,New Hampshire,,,Independent,0,0,0,0,0,0,0,0,0,0,0,1,0,0,0,0,1,0,2,No,43.868154757864,-71.6097074395595
Canaan Valley,https://www.skiresort.info/ski-resort/canaan-valley/,90.0,3428,4278,850,6.0,West Virginia,95.0,160,Independent,0,0,0,0,0,0,0,0,1,2,0,0,0,0,0,0,0,3,6,No,39.0074914670958,-79.43806136362
Cannon Mountain,https://www.skiresort.info/ski-resort/cannon-mountain/,134.0,1965,4078,2113,31.0,New Hampshire,285.0,160,Independent,1,0,0,0,0,0,0,1,2,3,0,1,0,1,0,0,1,0,10,No,44.1771132551515,-71.7016955572861
Cannonsburg,https://www.skiresort.info/ski-resort/cannonsburg/,55.0,689,919,230,1.0,Michigan,100.0,100,Independent,0,0,0,0,0,0,0,0,1,1,0,1,0,0,0,0,4,1,8,No,43.0534982746022,-85.5015390819272
Cascade Mountain,https://www.skiresort.info/ski-resort/cascade-mountain/,99.0,820,1240,420,9.0,Wisconsin,176.0,80,Independent,0,0,0,0,0,0,0,2,3,1,0,2,0,0,0,0,1,1,10,No,43.5031174765504,-89.5180722948491
Cataloochee,https://www.skiresort.info/ski-resort/cataloochee/,86.0,4462,5194,732,4.0,North Carolina,50.0,24,Independent,0,0,0,0,0,0,0,0,2,1,0,0,0,0,0,0,0,2,5,No,35.5625691923737,-83.0902548179601
Catamount,https://www.skiresort.info/ski-resort/catamount/,105.0,902,1903,1001,9.0,New York,133.0,108,The Schaefer Family,0,0,0,0,0,0,0,0,2,3,0,0,0,0,0,0,0,3,8,No,42.1691236267811,-73.4774407875158
Chapman Hill,https://www.skiresort.info/ski-resort/chapman-hill-durango/,16.0,6568,6877,308,0.4,Colorado,7.0,71,Independent,0,0,0,0,0,0,0,0,0,0,0,0,0,0,0,1,1,0,2,Yes,37.2831302278055,-107.86855524965
Cherry Peak,https://www.skiresort.info/ski-resort/cherry-peak/,55.0,7382,8645,1263,12.0,Utah,400.0,320,Independent,0,0,0,0,0,0,0,0,0,3,0,0,0,0,0,0,0,1,4,No,41.9264359764878,-111.756877872185
Chester Bowl,https://www.skiresort.info/ski-resort/chester-bowl/,15.0,1083,1247,164,1.0,Minnesota,6.0,100,Independent,0,0,0,0,0,0,0,0,0,0,0,1,0,0,0,0,0,0,1,No,46.8132915091172,-92.0956478092792
Chestnut Mountain,https://www.skiresort.info/ski-resort/chestnut-mountain/,70.0,623,1099,476,4.0,Illinois,220.0,34,Independent,0,0,0,0,0,0,0,0,2,4,0,0,0,0,0,0,1,2,9,No,42.317755614171,-90.3942865298377
China Peak,https://www.skiresort.info/ski-resort/china-peak/,169.0,7044,8629,1585,31.0,California,1200.0,300,California Mountain Resort Company,0,0,0,0,0,0,0,0,2,4,0,0,0,1,0,0,0,4,11,No,37.2356010250206,-119.155097914595
Chipmunk Hills,https://www.skiresort.info/ski-resort/chipmunk/,5.0,6450,6752,302,0.3,Idaho,30.0,,Independent,0,0,0,0,0,0,0,0,0,0,0,0,0,0,0,0,1,0,1,Yes,44.4713558283973,-114.322116686657
Christie Mountain,https://www.skiresort.info/ski-resort/christie-mountain/,53.0,1312,1673,361,3.0,Wisconsin,45.0,60,Independent,0,0,0,0,0,0,0,0,0,0,0,1,0,1,0,0,3,0,5,No,45.5091626564987,-91.381230548605
Christmas Mountain,https://www.skiresort.info/ski-resort/christmas-mountain/,80.0,1017,1214,197,1.0,Wisconsin,40.0,40,Independent,0,0,0,0,0,0,0,0,1,0,0,0,0,0,0,0,1,0,2,No,43.6090472474722,-89.8598086658323
Cloudcroft,https://www.skiresort.info/ski-resort/cloudcroft/,65.0,8399,9098,699,6.0,New Mexico,74.0,120,Independent,0,0,0,0,0,0,0,0,0,0,0,1,0,0,0,0,2,0,3,No,32.9507846242142,-105.707296364764
Cloudmont,https://www.skiresort.info/ski-resort/cloudmont/,40.0,1650,1798,148,0.2,Alabama,9.0,6,Independent,0,0,0,0,0,0,0,0,0,0,0,0,0,0,0,0,1,0,1,Yes,34.5350438872562,-85.6011419277421
Cochran,https://www.skiresort.info/ski-resort/cochran/,19.0,400,699,299,1.0,Vermont,15.0,150,Independent,0,0,0,0,0,0,0,0,0,0,0,0,0,1,0,0,1,0,2,Yes,44.395273403242,-72.9818795400841
Coffee Mill,https://www.skiresort.info/ski-resort/coffee-mill/,55.0,755,1181,427,1.0,Minnesota,40.0,48,Independent,0,0,0,0,0,0,0,0,0,0,0,2,0,0,0,0,1,0,3,No,44.36358039017,-92.0436122530289
Cooper Spur,https://www.skiresort.info/ski-resort/cooper-spur/,49.0,3999,4347,348,6.0,Oregon,50.0,100,Independent,0,0,0,0,0,0,0,0,0,0,0,1,0,0,0,0,1,0,2,No,45.4123878862393,-121.605333363129
Copper Mountain,https://www.skiresort.info/ski-resort/copper-mountain/,264.0,9711,12441,2730,78.0,Colorado,2465.0,305,Powdr,0,0,0,0,0,3,1,3,0,5,0,4,0,1,0,2,0,6,25,No,39.4997265764632,-106.156610464311
Coppervale,https://www.skiresort.info/ski-resort/coppervale/,40.0,5249,5988,738,2.0,California,80.0,,Independent,0,0,0,0,0,0,0,0,0,0,0,0,0,0,0,1,1,0,2,Yes,40.3453440529268,-120.904121709562
Cottonwood Butte,https://www.skiresort.info/ski-resort/cottonwood-butte/,20.0,4757,5600,843,3.0,Idaho,260.0,45,Independent,0,0,0,0,0,0,0,0,0,0,0,0,0,1,0,0,0,0,1,Yes,46.0755408149496,-116.452689033904
Cranmore Mountain Resort,https://www.skiresort.info/ski-resort/cranmore-mountain-resort/,119.0,876,1998,1122,27.0,New Hampshire,170.0,120,Independent,0,0,0,0,0,0,0,1,1,2,0,1,0,0,0,0,0,2,7,No,44.0568725463447,-71.1101185043782
Cranor Ski Hill,https://www.skiresort.info/ski-resort/cranor-ski-hill-gunnison/,22.0,7874,8189,315,1.0,Colorado,,,Independent,0,0,0,0,0,0,0,0,0,0,0,0,0,0,0,1,0,0,1,Yes,38.586962261632,-106.895818247931
Crested Butte,https://www.skiresort.info/ski-resort/crested-butte/,179.0,9101,11877,2776,75.0,Colorado,1547.0,234,Vail Resorts,0,0,0,0,0,0,0,4,3,3,0,0,0,2,0,0,0,3,15,No,38.8989044753285,-106.965688145434
Crotched Mountain,https://www.skiresort.info/ski-resort/crotched-mountain/,94.0,1188,2067,879,5.0,New Hampshire,75.0,105,Vail Resorts,0,0,0,0,0,0,0,1,1,1,0,1,0,0,0,0,0,1,5,No,43.0117944096497,-71.8789622628888
Crystal Mountain (Michigan),https://www.skiresort.info/ski-resort/crystal-mountain-mi/,115.38,804,1178,374,3.0,Michigan,103.0,132,Independent,0,0,0,0,0,0,0,1,3,2,0,0,0,0,0,0,0,2,8,No,44.5198105230083,-85.9923169096196
Crystal Mountain (Washington),https://www.skiresort.info/ski-resort/crystal-mountain-wa/,199.0,4400,7011,2612,31.0,Washington,2600.0,466,Alterra,0,1,0,0,0,2,0,2,1,2,0,2,0,0,0,0,0,1,11,No,46.9354019219933,-121.474849805705
Crystal Ridge,https://www.skiresort.info/ski-resort/the-rock-snowpark/,70.0,702,932,230,1.0,Wisconsin,30.0,50,Schmitz Brothers,0,0,0,0,0,0,0,0,0,0,0,1,0,0,0,0,2,2,5,No,42.9200449360399,-88.0155669009846
Dartmouth Skiway,https://www.skiresort.info/ski-resort/dartmouth-skiway/,65.0,974,1942,968,10.0,New Hampshire,104.0,100,Independent,0,0,0,0,0,0,0,0,1,0,0,1,0,0,0,0,0,2,4,No,43.7878873851641,-72.09978476655
Deer Valley,https://www.skiresort.info/ski-resort/deer-valley/,299.0,6509,9570,3061,66.0,Utah,2026.0,300,Alterra,0,2,0,0,0,2,0,20,1,5,0,1,0,0,0,1,0,5,37,No,40.6371959568097,-111.478197937968
Detroit Mountain,https://www.skiresort.info/ski-resort/detroit-mountain/,52.0,1444,1608,164,1.0,Minnesota,45.0,47,Independent,0,0,0,0,0,0,0,0,0,2,0,0,0,0,0,0,2,2,6,No,46.8132100326255,-95.7837874701962
Devil’s Head,https://www.skiresort.info/ski-resort/devils-head/,95.0,492,994,502,6.0,Wisconsin,300.0,70,Independent,0,0,0,0,0,0,0,0,6,0,0,0,0,0,0,0,2,0,8,No,43.4185257775061,-89.6267086497673
Diamond Peak,https://www.skiresort.info/ski-resort/diamond-peak/,180.0,6699,8537,1837,10.0,Nevada,655.0,188,Independent,0,0,0,0,0,0,0,1,2,0,0,3,0,0,0,0,0,1,7,No,39.2537469292922,-119.923804332164
Discovery Ski Area,https://www.skiresort.info/ski-resort/discovery-ski-area/,65.0,5768,8150,2382,28.0,Montana,2200.0,215,Independent,0,0,0,0,0,0,0,0,0,5,0,2,0,0,0,0,0,1,8,No,46.2494550872273,-113.238454460882
Dodge Ridge,https://www.skiresort.info/ski-resort/dodge-ridge/,109.0,6598,8199,1601,31.0,California,862.0,300,California Mountain Resort Company,0,0,0,0,0,0,0,0,1,3,0,3,0,1,0,0,1,2,11,No,38.1896088238942,-119.956636379746
Donner Ski Ranch,https://www.skiresort.info/ski-resort/donner-ski-ranch/,99.0,7028,7779,751,32.0,California,460.0,396,Independent,0,0,0,0,0,0,0,0,0,1,0,5,0,0,0,0,0,1,7,No,39.3183704268204,-120.330170801418
Dry Hill,https://www.skiresort.info/ski-resort/dry-hill/,50.0,712,984,272,1.0,New York,42.0,125,Independent,0,0,0,0,0,0,0,0,0,0,0,1,0,1,0,0,0,0,2,No,43.9309944454555,-75.9015954266134
Dynamite Hill,https://www.skiresort.info/ski-resort/dynamite-hill-chestertown/,0.0,830,922,92,0.1,New York,8.0,,Independent,0,0,0,0,0,0,0,0,0,0,0,0,0,0,0,0,1,0,1,Yes,43.6590170168698,-73.7972756115119
Eagle Point,https://www.skiresort.info/ski-resort/eagle-point/,90.0,9098,10597,1499,12.0,Utah,650.0,400,Independent,0,0,0,0,0,0,0,0,1,1,0,2,0,0,0,1,0,0,5,No,38.3202765202732,-112.384067965442
Eaglecrest,https://www.skiresort.info/ski-resort/eaglecrest-juneau/,75.0,1148,2690,1542,11.0,Alaska,640.0,350,Independent,0,0,0,0,0,0,0,0,0,0,0,4,0,0,0,0,0,0,4,No,58.2744014134941,-134.512719943021
Echo Mountain – Idaho Springs,https://www.skiresort.info/ski-resort/echo-mountain-park-idaho-springs/,79.0,10499,11158,659,2.0,Colorado,60.0,150,Independent,0,0,0,0,0,0,0,0,0,1,0,0,0,0,0,0,0,1,2,No,39.684515618697,-105.519414261192
Echo Valley – Lake Chelan,https://www.skiresort.info/ski-resort/echo-valley-lake-chelan/,40.0,2618,3110,492,1.0,Washington,70.0,100,Independent,0,0,0,0,0,0,0,0,0,0,0,0,0,0,0,1,3,0,4,Yes,47.9357936901783,-120.05525877244
Eldora Mountain,https://www.skiresort.info/ski-resort/eldora-mountain/,199.0,9199,10801,1601,32.0,Colorado,680.0,300,Powdr,0,0,0,0,0,1,0,0,2,1,0,3,0,0,0,1,1,1,10,No,39.936907670782,-105.58362274104
Elk Mountain,https://www.skiresort.info/ski-resort/elk-mountain/,89.0,1706,2690,984,9.0,Pennsylvania,140.0,65,Independent,0,0,0,0,0,0,0,0,1,0,0,5,0,0,0,0,0,0,6,No,41.7230922724518,-75.5533631304153
Elko Snowbowl,https://www.skiresort.info/ski-resort/elko-snobowl/,20.0,6339,6988,650,2.0,Nevada,60.0,24,Independent,0,0,0,0,0,0,0,0,0,0,0,1,0,0,0,0,1,0,2,No,40.9087182990652,-115.854217229024
Ferguson Ridge,https://www.skiresort.info/ski-resort/ferguson-ridge/,20.0,5200,5840,640,3.0,Oregon,170.0,300,Independent,0,0,0,0,0,0,0,0,0,0,0,0,0,1,0,0,1,0,2,Yes,45.2818285027238,-117.112116090316
Fort Wainwright – Birch Hill,https://www.skiresort.info/ski-resort/fort-wainwrightbirch-hill-fairbanks/,30.0,459,984,525,3.0,Alaska,,,Independent,0,0,0,0,0,0,0,0,0,0,0,1,0,0,0,0,0,1,2,No,64.8585918456996,-147.619431540999
Four Lakes,https://www.skiresort.info/ski-resort/four-lakes/,30.0,656,722,66,1.0,Illinois,9.0,24,Independent,0,0,0,0,0,0,0,0,0,0,0,0,0,0,0,0,7,0,7,Yes,41.7807983122941,-88.0832867666979
Four Seasons,https://www.skiresort.info/ski-resort/four-seasons/,30.0,525,607,82,0.5,New York,25.0,125,Independent,0,0,0,0,0,0,0,0,0,0,0,1,0,0,0,0,0,1,2,No,43.0357831001274,-75.9721773178541
Frisco Adventure Park,https://www.skiresort.info/ski-resort/frisco-adventure-park/,55.0,9085,9163,79,0.1,Colorado,,,Independent,0,0,0,0,0,0,0,0,0,0,0,0,0,0,0,0,0,1,1,Yes,39.573684425141,-106.077682971732
Frost Fire Park,https://www.skiresort.info/ski-resort/frost-fire-park/,50.0,1083,1444,361,1.0,North Dakota,30.0,35,Independent,0,0,0,0,0,0,0,0,1,0,0,0,0,0,0,0,0,1,2,No,48.9120255438674,-98.0686432833885
Giants Ridge,https://www.skiresort.info/ski-resort/giants-ridge/,64.0,1444,1837,394,7.0,Minnesota,165.0,62,Independent,0,0,0,0,0,0,0,1,1,1,0,2,0,0,0,0,0,2,7,No,47.5762880634521,-92.3034803393746
Gore Mountain,https://www.skiresort.info/ski-resort/gore-mountain/,109.0,997,3599,2602,36.0,New York,439.0,150,New York State,0,1,0,0,0,0,0,3,6,1,0,0,0,0,1,0,0,2,14,No,43.6727116846365,-74.0074677758006
Granby Ranch,https://www.skiresort.info/ski-resort/granby-ranch/,164.0,8199,9199,1001,12.0,Colorado,406.0,120,Independent,0,0,0,0,0,0,0,1,1,1,0,1,0,0,0,0,0,2,6,No,40.0446160179453,-105.906278859327
Grand Geneva,https://www.skiresort.info/ski-resort/grand-geneva/,70.0,787,997,210,1.0,Wisconsin,20.0,46,Independent,0,0,0,0,0,0,0,0,0,0,0,3,0,0,0,0,1,2,6,No,42.6113706796109,-88.3864054634684
Grand Targhee,https://www.skiresort.info/ski-resort/grand-targhee/,170.0,7651,9862,2211,35.0,Wyoming,2602.0,500,Independent,0,0,0,0,0,1,0,2,2,0,0,0,0,0,0,0,0,1,6,No,43.7888594489091,-110.957590249613
Granite Gorge,https://www.skiresort.info/ski-resort/granite-gorge/,55.0,801,1325,525,4.0,New Hampshire,25.0,100,Independent,0,0,0,0,0,0,0,0,0,0,0,1,0,0,0,0,1,1,3,No,42.9708916180167,-72.2120761898773
Granite Peak,https://www.skiresort.info/ski-resort/granite-peak-at-rib-mountain-state-park/,105.0,1247,1949,702,12.0,Wisconsin,155.0,75,Midwest Family Ski Resorts,0,0,0,0,0,1,0,2,0,2,0,0,0,0,0,0,0,2,7,No,44.929020884139,-89.683766937317
Granlibakken,https://www.skiresort.info/ski-resort/granlibakken/,45.0,6312,6611,299,1.0,California,25.0,170,Independent,0,0,0,0,0,0,0,0,0,0,0,0,0,0,0,1,1,0,2,Yes,39.1554361019215,-120.154048740325
Great Bear Ski Valley,https://www.skiresort.info/ski-resort/great-bear-ski-valley/,35.0,1345,1542,197,2.0,South Dakota,20.0,49,Independent,0,0,0,0,0,0,0,0,1,0,0,0,0,0,0,0,1,1,3,No,43.5779634092926,-96.6649009549158
Great Divide,https://www.skiresort.info/ski-resort/great-divide/,68.0,5748,7251,1503,31.0,Montana,1600.0,180,Independent,0,0,0,0,0,0,0,0,0,0,0,5,0,0,0,0,1,0,6,No,46.7526346800267,-112.314192899339
Greek Peak,https://www.skiresort.info/ski-resort/greek-peak/,115.0,1148,2100,951,12.0,New York,220.0,122,Independent,0,0,0,0,0,0,0,0,1,2,0,3,0,0,0,0,0,2,8,No,42.507952835637,-76.145009035926
Gunstock,https://www.skiresort.info/ski-resort/gunstock/,109.0,866,2264,1398,25.0,New Hampshire,227.0,120,Independent,0,0,0,0,0,0,0,1,2,2,0,0,0,0,0,0,0,3,8,No,43.5407035680523,-71.3665668479944
Hanson Hills,https://www.skiresort.info/ski-resort/hanson-hills/,30.0,1148,1280,131,1.0,Michigan,125.0,60,Independent,0,0,0,0,0,0,0,0,0,0,0,0,0,1,0,0,2,0,3,Yes,44.6455937707218,-84.7536994088373
Hard’ack (Aldis Hill),https://www.skiresort.info/ski-resort/hardack-aldis-hill-st-albans/,0.0,623,755,131,0.1,Vermont,,,Independent,0,0,0,0,0,0,0,0,0,0,0,0,0,0,0,0,1,0,1,Yes,44.8153058326591,-73.0666027860906
Hatley Pointe,https://www.skiresort.info/ski-resort/wolf-ridge/,88.0,3999,4698,699,4.0,North Carolina,72.0,65,Independent,0,0,0,0,0,0,0,0,2,0,0,1,0,0,0,0,1,1,5,No,35.9541380045367,-82.5088419613478
Heavenly,https://www.skiresort.info/ski-resort/heavenly/,265.0,6657,10067,3502,58.0,California,4800.0,360,Vail Resorts,1,1,0,0,0,2,0,8,1,5,0,2,0,0,0,0,2,4,26,No,38.9347057927039,-119.940079125155
Hermon Mountain,https://www.skiresort.info/ski-resort/hermon-mountain/,55.0,164,459,295,2.0,Maine,60.0,90,Independent,0,0,0,0,0,0,0,0,0,0,0,1,0,1,0,0,0,0,2,No,44.7806330628185,-68.9570670554077
Hesperus Ski Area,https://www.skiresort.info/ski-resort/hesperus-ski-area/,48.0,8278,8878,600,6.0,Colorado,60.0,150,Mountain Capital Partners,0,0,0,0,0,0,0,0,0,0,0,1,0,0,0,0,0,0,1,No,37.2985613131526,-108.055322022662
Hiawatha – Rock River Township,https://www.skiresort.info/ski-resort/hiawatha-rock-river-township/,5.0,850,938,89,0.3,Michigan,,,Independent,0,0,0,0,0,0,0,0,0,0,0,0,0,0,0,0,1,0,1,Yes,46.3581714755926,-86.8812239069032
Hidden Valley (Missouri),https://www.skiresort.info/ski-resort/hidden-valley-mo/,52.0,492,787,295,2.0,Missouri,65.0,19,Vail Resorts,0,0,0,0,0,0,0,0,2,2,0,1,0,0,0,0,1,1,7,No,38.5351202062255,-90.6509531632514
Hidden Valley (Pennsylvania),https://www.skiresort.info/ski-resort/hidden-valley-pa/,76.0,2395,2920,525,6.0,Pennsylvania,110.0,140,Vail Resorts,0,0,0,0,0,0,0,0,2,2,0,0,0,0,0,0,2,2,8,No,40.0577928580795,-79.2578199930338
Hillberg,https://www.skiresort.info/ski-resort/hillberg/,28.0,131,394,262,1.0,Alaska,,,Independent,0,0,0,0,0,0,0,0,0,0,0,1,0,0,0,0,2,0,3,No,61.2751919629919,-149.82116625393
Hilltop,https://www.skiresort.info/ski-resort/hilltop-anchorage/,39.0,492,787,295,3.0,Alaska,30.0,76,Independent,0,0,0,0,0,0,0,0,0,1,0,0,0,0,0,1,0,1,3,No,61.1409961476271,-149.744703410311
Hoedown Hill,https://www.skiresort.info/ski-resort/hoedown-hill-windsor/,51.0,4839,4970,131,1.0,Colorado,12.0,24,Independent,0,0,0,0,0,0,0,0,0,0,0,0,0,0,0,0,0,4,4,Yes,40.452640007411,-104.930769837536
Hogadon Ski Area,https://www.skiresort.info/ski-resort/hogadon-ski-area/,60.0,7398,7999,600,3.0,Wyoming,60.0,140,Independent,0,0,0,0,0,0,0,0,0,0,0,1,0,0,0,0,0,1,2,No,42.7445338188477,-106.338362242757
Holiday Mountain (New York),https://www.skiresort.info/ski-resort/holiday-mountain-ny/,75.0,1050,1444,394,2.0,New York,37.0,90,Independent,0,0,0,0,0,0,0,0,1,1,0,0,0,0,0,0,0,1,3,No,41.6264933413898,-74.6109681445628
Holiday Valley,https://www.skiresort.info/ski-resort/holiday-valley/,105.0,1499,2247,748,30.0,New York,290.0,180,Independent,0,0,0,0,0,1,0,3,7,0,0,0,0,0,0,0,0,2,13,No,42.2625035071625,-78.6653806301598
Holimont,https://www.skiresort.info/ski-resort/holimont/,114.0,1558,2260,702,12.0,New York,135.0,180,Independent,0,0,0,0,0,0,0,1,1,2,0,2,0,0,0,0,0,2,8,No,42.2729118230291,-78.6877224644232
Homewood Mountain Resort,https://www.skiresort.info/ski-resort/homewood-mountain-resort/,159.0,6230,7881,1650,12.0,California,1260.0,450,JMA Ventures,0,0,0,0,0,0,0,1,0,3,0,0,0,0,0,1,0,1,6,No,39.0853334379431,-120.1619123945
Hoodoo Ski Area,https://www.skiresort.info/ski-resort/hoodoo-ski-area/,85.0,4692,5709,1017,11.0,Oregon,806.0,350,Independent,0,0,0,0,0,0,0,0,3,1,0,1,0,0,0,0,0,1,6,No,44.4084752556319,-121.871405074466
Howelsen Hill,https://www.skiresort.info/ski-resort/howelsen-hill-steamboat-springs/,49.0,6693,7136,443,2.0,Colorado,50.0,170,Independent,0,0,0,0,0,0,0,0,0,1,0,0,0,0,0,1,0,2,4,No,40.4833852695287,-106.83845825946
Huff Hills,https://www.skiresort.info/ski-resort/huff-hills/,39.0,1870,2231,361,2.0,North Dakota,80.0,40,Independent,0,0,0,0,0,0,0,0,0,0,0,2,0,0,0,0,2,0,4,No,46.6268871105075,-100.723374935725
Hunt Hollow Ski Club,https://www.skiresort.info/ski-resort/hunt-hollow-ski-club/,70.0,1132,2008,876,3.0,New York,80.0,130,Independent,0,0,0,0,0,0,0,0,0,1,0,1,0,1,0,0,0,1,4,No,42.6459959711726,-77.4782967224263
Hunter Mountain,https://www.skiresort.info/ski-resort/hunter-mountain/,119.0,1598,3199,1601,34.0,New York,320.0,120,Vail Resorts,0,0,0,0,0,3,0,1,2,1,0,2,0,0,0,1,0,3,13,No,42.2045265507671,-74.2108603032475
Hurricane Ridge,https://www.skiresort.info/ski-resort/hurricane-ridge/,57.0,4800,5499,699,1.0,Washington,250.0,400,Independent,0,0,0,0,0,0,0,0,0,0,0,0,0,0,0,1,2,0,3,Yes,47.9693016642462,-123.498458212375
Hyland Hills,https://www.skiresort.info/ski-resort/hyland-hills/,44.0,853,1017,164,1.0,Minnesota,35.0,60,Independent,0,0,0,0,0,0,0,0,3,0,0,0,0,0,0,0,3,2,8,No,44.8437267252721,-93.3637614531589
Jack Frost Mountain,https://www.skiresort.info/ski-resort/jack-frost-mountain/,105.0,1401,2001,600,7.0,Pennsylvania,100.0,50,Vail Resorts,0,0,0,0,0,0,0,0,4,0,0,2,0,0,0,0,0,0,6,No,41.1075794353382,-75.6519291686943
Jackson Hole,https://www.skiresort.info/ski-resort/jackson-hole/,269.0,6312,10449,4137,72.0,Wyoming,2500.0,459,Independent,1,2,0,0,0,0,0,6,3,0,0,1,0,0,0,0,1,2,16,No,43.5893595892153,-110.82849785039
Jay Peak,https://www.skiresort.info/ski-resort/jay-peak/,129.0,1847,3855,2008,47.0,Vermont,385.0,349,Pacific Group Resorts,1,0,0,0,0,0,0,1,3,1,0,1,0,0,0,0,0,2,9,No,44.9384784616126,-72.5062957979276
Jiminy Peak,https://www.skiresort.info/ski-resort/jiminy-peak/,109.0,1247,2375,1129,6.0,Massachusetts,170.0,100,Independent,0,0,0,0,0,1,0,0,2,3,0,1,0,0,0,0,0,2,9,No,42.5551067560408,-73.290749250716
John & Melissa Besse Sports Park – Gladstone,https://www.skiresort.info/ski-resort/john-melissa-besse-sports-park-gladstone/,12.0,643,748,105,0.4,Michigan,25.0,50,Independent,0,0,0,0,0,0,0,0,0,0,0,0,0,0,0,0,2,0,2,Yes,45.8604473436724,-87.0376130987832
June Mountain,https://www.skiresort.info/ski-resort/june-mountain/,199.0,7507,10089,2582,25.0,California,1500.0,250,Alterra,0,0,0,0,0,0,0,2,0,0,0,4,0,0,0,0,0,1,7,No,37.7679730434281,-119.090472342176
Kelly Canyon,https://www.skiresort.info/ski-resort/kelly-canyon/,79.0,5807,6660,853,7.0,Idaho,640.0,200,Independent,0,0,0,0,0,0,0,0,0,1,0,2,0,0,0,0,0,1,4,No,43.6457218544875,-111.629520322929
Kendall Mountain,https://www.skiresort.info/ski-resort/kendall-mountain-silverton/,26.0,9318,9843,525,1.0,Colorado,16.0,200,Independent,0,0,0,0,0,0,0,0,0,0,0,1,0,0,0,0,0,0,1,No,37.8112870858261,-107.656883876614
Kettlebowl,https://www.skiresort.info/ski-resort/kettlebowl/,10.0,1617,1778,161,1.0,Wisconsin,,,Independent,0,0,0,0,0,0,0,0,0,0,0,0,0,0,0,0,5,0,5,Yes,45.2717884587547,-88.8995523344941
Keyes Peak,https://www.skiresort.info/ski-resort/keyes-peak/,15.0,1312,1476,164,0.3,Wisconsin,15.0,60,Independent,0,0,0,0,0,0,0,0,0,0,0,0,0,0,0,0,3,0,3,Yes,45.8957004682133,-88.2993912608995
Keystone,https://www.skiresort.info/ski-resort/keystone/,292.0,9301,12280,2979,84.0,Colorado,3149.0,235,Vail Resorts,0,2,0,0,0,4,0,3,1,1,0,2,0,0,0,0,0,7,20,No,39.6045019679104,-105.954063903235
Killington,https://www.skiresort.info/ski-resort/killington/,199.0,1165,4242,3077,73.0,Vermont,1509.0,250,Powdr,0,2,0,0,0,2,0,4,5,2,0,1,0,0,0,1,0,3,20,No,43.6172250681186,-72.8034997593375
King Pine,https://www.skiresort.info/ski-resort/king-pine-purity-spring-resort/,82.0,476,787,312,3.0,New Hampshire,45.0,82,Independent,0,0,0,0,0,0,0,0,0,3,0,0,0,0,0,0,0,2,5,No,43.8678806436834,-71.0895126044749
Kirkwood,https://www.skiresort.info/ski-resort/kirkwood/,187.0,7799,9800,2001,40.0,California,2300.0,354,Vail Resorts,0,0,0,0,0,0,0,2,1,6,0,1,0,1,0,0,0,2,13,No,38.6830465895021,-120.066531160618
Kissing Bridge,https://www.skiresort.info/ski-resort/kissing-bridge/,88.0,1240,1706,466,11.0,New York,,182,Independent,0,0,0,0,0,0,0,0,2,1,0,3,0,0,0,0,2,1,9,No,42.5998115787149,-78.6527952549621
Labrador Mountain,https://www.skiresort.info/ski-resort/labrador-mountain/,74.0,1181,1870,689,11.0,New York,250.0,125,Independent,0,0,0,0,0,0,0,0,0,1,0,2,0,1,0,0,2,0,6,No,42.7409557418233,-76.0300862573546
Lake City Ski Hill,https://www.skiresort.info/ski-resort/lake-city-ski-hill/,30.0,8868,9091,223,1.0,Colorado,14.0,,Independent,0,0,0,0,0,0,0,0,0,0,0,0,0,0,0,1,0,0,1,Yes,38.0110533359667,-107.311863054551
Las Vegas Ski and Snowboard Resort – Lee Canyon,https://www.skiresort.info/ski-resort/las-vegas-ski-and-snowboard-resort-lee-canyon/,84.0,8694,9370,676,5.0,Nevada,195.0,129,Mountain Capital Partners,0,0,0,0,0,0,0,0,3,1,0,0,0,0,0,0,0,1,5,No,36.3033375598719,-115.679687892018
Laurel Mountain,https://www.skiresort.info/ski-resort/laurel-mountain/,66.0,1998,2759,761,5.0,Pennsylvania,70.0,41,Vail Resorts,0,0,0,0,0,0,0,0,1,0,0,0,0,0,0,0,1,0,2,No,40.1638698734738,-79.165512049526
Leavenworth Ski Hill,https://www.skiresort.info/ski-resort/leavenworth-ski-hill/,26.0,1476,1706,230,1.0,Washington,17.0,150,Independent,0,0,0,0,0,0,0,0,0,0,0,0,0,0,0,0,2,0,2,Yes,47.614442256247,-120.668934597124
Lee’s Ski Hill,https://www.skiresort.info/ski-resort/lees-ski-hill-ouray/,0.0,7887,7959,72,0.1,Colorado,2.0,134,Independent,0,0,0,0,0,0,0,0,0,0,0,0,0,0,0,0,1,0,1,Yes,38.0193543842194,-107.669045188845
Liberty Mountain,https://www.skiresort.info/ski-resort/liberty-mountain/,84.0,591,1165,574,6.0,Pennsylvania,100.0,31,Vail Resorts,0,0,0,0,0,0,0,0,5,0,0,0,0,0,0,0,0,2,7,No,39.7636436523238,-77.3754207896992
Little Ski Hill,https://www.skiresort.info/ski-resort/little-ski-hill/,25.0,5184,5577,394,1.0,Idaho,50.0,180,Independent,0,0,0,0,0,0,0,0,0,0,0,0,0,1,0,0,0,0,1,Yes,44.9300560715823,-116.16326809432
Little Switzerland,https://www.skiresort.info/ski-resort/little-switzerland/,80.0,1083,1247,164,2.0,Wisconsin,50.0,45,Schmitz Brothers,0,0,0,0,0,0,0,0,0,0,0,4,0,0,0,0,3,2,9,No,43.3378180103545,-88.2789297026259
Living Memorial Park – Brattleboro,https://www.skiresort.info/ski-resort/living-memorial-park-brattleboro/,5.0,433,620,187,0.3,Vermont,8.0,,Independent,0,0,0,0,0,0,0,0,0,0,0,0,0,1,0,0,0,0,1,Yes,42.8481991450278,-72.5857086781687
Lonesome Pine,https://www.skiresort.info/ski-resort/lonesome-pine-trails-fort-kent/,30.0,568,981,413,3.0,Maine,,,Independent,0,0,0,0,0,0,0,0,0,0,0,0,0,1,0,0,1,0,2,Yes,47.245962492741,-68.5947109094748
Lookout Pass,https://www.skiresort.info/ski-resort/lookout-pass/,73.0,4501,6152,1650,25.0,Idaho,1023.0,400,Independent,0,0,0,0,0,0,0,0,2,2,0,1,0,0,0,0,0,0,5,No,47.4560238000208,-115.697383151458
Loon Mountain,https://www.skiresort.info/ski-resort/loon-mountain/,145.0,860,3051,2192,30.0,New Hampshire,400.0,160,Boyne Resorts,0,1,1,0,1,0,0,3,2,0,0,4,0,0,0,0,0,2,14,No,44.055240138564,-71.6349580611254
Lost Trail Powder Mountain,https://www.skiresort.info/ski-resort/lost-trail-powder-mountain/,68.0,6430,8366,1936,31.0,Montana,1800.0,325,Independent,0,0,0,0,0,0,0,0,0,0,0,5,0,0,0,0,1,0,6,No,45.6919504813854,-113.952199685546
Lost Valley,https://www.skiresort.info/ski-resort/lost-valley/,66.0,256,545,289,1.0,Maine,45.0,99,Independent,0,0,0,0,0,0,0,0,0,0,0,3,0,0,0,0,0,1,4,No,44.1360017774864,-70.2808407538408
Loup Loup Ski Bowl,https://www.skiresort.info/ski-resort/loup-loup-ski-bowl/,70.0,4068,5315,1247,7.0,Washington,550.0,150,Independent,0,0,0,0,0,0,0,0,1,0,0,0,0,0,0,1,1,0,3,No,48.3941812890481,-119.91114568404
Loveland,https://www.skiresort.info/ski-resort/loveland/,149.0,10646,12700,2054,58.0,Colorado,1800.0,422,Independent,0,0,0,0,0,0,0,1,2,4,0,0,0,0,0,0,0,0,7,No,39.6809795033515,-105.897469080953
Lutsen Mountains,https://www.skiresort.info/ski-resort/lutsen-mountains/,105.0,863,1690,827,25.0,Minnesota,393.0,120,Midwest Family Ski Resorts,0,1,0,0,0,2,0,0,0,0,0,3,0,0,0,0,0,1,7,No,47.6640809719027,-90.7133168699301
Lyndon Outing Club,https://www.skiresort.info/ski-resort/lyndon-outing-club/,15.0,853,1247,394,2.0,Vermont,18.0,,Independent,0,0,0,0,0,0,0,0,0,0,0,0,0,1,0,0,1,0,2,Yes,44.533266212434,-71.9871816771729
Mad River Glen,https://www.skiresort.info/ski-resort/mad-river-glen/,99.0,1598,3635,2037,29.0,Vermont,115.0,250,Independent,0,0,0,0,0,0,0,0,0,0,0,3,1,0,0,0,1,0,5,No,44.2024365758659,-72.9176184544531
Mad River Mountain,https://www.skiresort.info/ski-resort/mad-river-mountain/,59.0,1158,1460,302,4.0,Ohio,144.0,36,Independent,0,0,0,0,0,0,0,0,1,2,0,2,0,0,0,0,3,1,9,No,40.3172137811819,-83.6786803473792
Magic Mountain (Idaho),https://www.skiresort.info/ski-resort/magic-mountain-resort/,40.0,6499,7241,741,7.0,Idaho,120.0,230,Independent,0,0,0,0,0,0,0,0,0,0,0,1,0,0,0,0,0,2,3,No,42.1889478686764,-114.285421601892
Magic Mountain (Vermont),https://www.skiresort.info/ski-resort/magic-mountain/,89.0,1148,2848,1699,14.0,Vermont,205.0,150,Independent,0,0,0,0,0,0,0,0,1,0,0,2,0,0,0,0,1,1,5,No,43.2016581739691,-72.7724161235869
Mammoth Mountain,https://www.skiresort.info/ski-resort/mammoth-mountain/,259.0,7953,11053,3100,56.0,California,3500.0,400,Alterra,0,2,0,0,0,4,0,8,1,6,0,3,0,0,0,1,0,2,27,No,37.6505605971238,-119.037074193745
Maple Ski Ridge,https://www.skiresort.info/ski-resort/maple-ski-ridge/,43.0,538,820,282,1.0,New York,60.0,60,Independent,0,0,0,0,0,0,0,0,0,1,0,1,0,0,0,0,2,0,4,No,42.8170310293506,-74.0322733289397
Marquette Mountain,https://www.skiresort.info/ski-resort/marquette-mountain/,80.0,787,1280,492,6.0,Michigan,330.0,210,Independent,0,0,0,0,0,0,0,0,0,1,0,2,0,0,0,0,1,0,4,No,46.5081094953739,-87.4208446846992
Massanutten,https://www.skiresort.info/ski-resort/massanutten/,95.0,1749,2858,1109,5.0,Virginia,70.0,35,Independent,0,0,0,0,0,0,0,1,2,1,0,0,0,0,0,0,0,3,7,No,38.4034887492902,-78.7547990154079
Maverick Mountain,https://www.skiresort.info/ski-resort/maverick-mountain/,49.0,6496,8517,2021,12.0,Montana,255.0,250,Independent,0,0,0,0,0,0,0,0,0,0,0,1,0,0,0,0,1,0,2,No,45.4339652054196,-113.128580027769
McCauley Mountain,https://www.skiresort.info/ski-resort/mccauly-mountain/,40.0,1772,2297,525,6.0,New York,75.0,180,Independent,0,0,0,0,0,0,0,0,0,1,0,0,0,2,0,0,2,0,5,No,43.6980626525479,-74.9635750709885
McIntyre,https://www.skiresort.info/ski-resort/mcintyre/,57.0,351,509,157,2.0,New Hampshire,37.0,,Independent,0,0,0,0,0,0,0,0,0,0,0,2,0,0,0,0,0,2,4,No,43.0062351836235,-71.4411046791014
Meadowlark Ski Lodge,https://www.skiresort.info/ski-resort/meadowlark-ski-lodge/,62.0,8481,9278,797,6.0,Wyoming,300.0,160,Independent,0,0,0,0,0,0,0,0,0,1,0,1,0,0,0,0,0,0,2,No,44.1639801381549,-107.215629847369
Meany Lodge,https://www.skiresort.info/ski-resort/meany-lodge/,60.0,2920,3346,427,1.0,Washington,100.0,,Independent,0,0,0,0,0,0,0,0,0,0,0,0,0,0,0,0,1,0,1,Yes,47.2802117713962,-121.320279503498
Middlebury College Snow Bowl,https://www.skiresort.info/ski-resort/middlebury-college-snow-bowl/,65.0,1821,2657,837,9.0,Vermont,110.0,200,Independent,0,0,0,0,0,0,0,0,1,2,0,0,0,0,0,0,0,1,4,No,43.9390638679106,-72.9577790781621
Missaukee Mountain,https://www.skiresort.info/ski-resort/missaukee-mountain/,10.0,1253,1411,157,1.0,Michigan,25.0,90,Independent,0,0,0,0,0,0,0,0,0,0,0,0,0,0,0,0,2,0,2,Yes,44.3920673639762,-85.2274053831272
Mohawk Mountain,https://www.skiresort.info/ski-resort/mohawk-mountain/,81.0,919,1490,571,5.0,Connecticut,107.0,92,Independent,0,0,0,0,0,0,0,0,0,5,0,0,0,0,0,0,0,3,8,No,41.8381109806704,-73.3150251311697
Monarch,https://www.skiresort.info/ski-resort/monarch/,139.0,10794,11909,1115,23.0,Colorado,800.0,350,Independent,0,0,0,0,0,0,0,0,1,1,0,4,0,0,0,0,0,1,7,No,38.5119341093121,-106.332256677704
Mont Ripley,https://www.skiresort.info/ski-resort/mont-ripley/,60.0,656,1083,427,4.0,Michigan,112.0,275,Independent,0,0,0,0,0,0,0,0,0,0,0,2,0,1,0,0,1,0,4,No,47.1279021926219,-88.5602456490077
Mont du Lac,https://www.skiresort.info/ski-resort/mont-du-lac/,54.99,640,919,279,2.0,Wisconsin,20.0,55,Independent,0,0,0,0,0,0,0,0,0,0,0,1,0,0,0,0,1,1,3,No,46.6515796770749,-92.2844870649038
Montage Mountain Resort,https://www.skiresort.info/ski-resort/montage-mountain-resort/,89.0,935,1949,1014,6.0,Pennsylvania,140.0,47,Independent,0,0,0,0,0,0,0,0,1,3,0,1,0,0,0,0,0,1,6,No,41.351004626727,-75.6619309845132
Montana Snowbowl,https://www.skiresort.info/ski-resort/montana-snowbowl/,79.0,4997,7598,2602,19.0,Montana,950.0,300,Independent,0,0,0,0,0,0,0,0,0,1,0,3,0,1,0,0,1,0,6,No,47.0144510796211,-113.999707797169
Moose Mountain,https://www.skiresort.info/ski-resort/moose-mountain/,55.0,679,1952,1273,16.0,Alaska,200.0,70,Independent,0,0,0,0,0,0,0,0,0,0,0,0,0,0,0,0,1,0,1,Yes,64.9404426895369,-147.991355521483
Mt. Abram,https://www.skiresort.info/ski-resort/mt-abram/,39.0,951,2001,1050,9.0,Maine,170.0,115,Independent,0,0,0,0,0,0,0,0,0,0,0,2,0,1,0,0,0,1,4,No,44.3796619039895,-70.7067943423313
Mt. Ashland,https://www.skiresort.info/ski-resort/mt-ashland/,79.0,6339,7500,1161,8.0,Oregon,240.0,300,Independent,0,0,0,0,0,0,0,0,0,3,0,2,0,0,0,0,0,1,6,No,42.0817384270801,-122.704953326488
Mt. Ashwabay,https://www.skiresort.info/ski-resort/mt-ashwabay-salmo/,35.0,1004,1276,272,2.0,Wisconsin,65.0,120,Independent,0,0,0,0,0,0,0,0,0,0,0,1,0,0,0,0,1,0,2,No,46.7771989913976,-90.8945027136377
Mt. Bachelor,https://www.skiresort.info/ski-resort/mt-bachelor/,224.0,5699,9065,3366,61.0,Oregon,4323.0,462,Powdr,0,0,0,0,0,1,0,7,1,3,0,0,0,0,0,0,0,3,15,No,44.0026767292127,-121.678658696209
Mt. Baker,https://www.skiresort.info/ski-resort/mt-baker/,94.27,3510,5105,1594,16.0,Washington,1000.0,701,Independent,0,0,0,0,0,0,0,0,7,0,0,0,0,0,0,0,2,0,9,No,48.8618315027041,-121.654790071555
Mount Baldy,https://www.skiresort.info/ski-resort/mt-baldy/,115.0,6486,8596,2110,12.0,California,800.0,170,Independent,0,0,0,0,0,0,0,0,0,0,0,4,0,0,0,0,0,0,4,No,34.2700526644504,-117.621860023037
Mount Bohemia,https://www.skiresort.info/ski-resort/mt-bohemia/,95.0,623,1460,837,8.0,Michigan,585.0,273,Independent,0,0,0,0,0,0,0,0,0,1,0,1,0,0,0,0,0,0,2,No,47.3878041398726,-88.0207536933831
Mt. Brighton,https://www.skiresort.info/ski-resort/mt-brighton/,117.0,935,1115,180,4.0,Michigan,130.0,60,Vail Resorts,0,0,0,0,0,0,0,0,2,3,0,0,0,0,0,0,5,2,12,No,42.5407515363666,-83.8115629359673
Mt. Crescent,https://www.skiresort.info/ski-resort/mt-crescent/,44.0,1201,1499,299,1.0,Iowa,50.0,30,Independent,0,0,0,0,0,0,0,0,1,0,0,1,0,0,0,0,0,0,2,No,41.3942508584616,-95.8605955960958
Mt. Eustis,https://www.skiresort.info/ski-resort/mt-eustis-littleton/,0.0,984,1263,279,1.0,New Hampshire,,,Independent,0,0,0,0,0,0,0,0,0,0,0,0,0,0,0,0,1,0,1,Yes,44.2973722928387,-71.7736434606393
Mt. Eyak,https://www.skiresort.info/ski-resort/mt-eyak/,30.0,400,1201,801,3.0,Alaska,100.0,350,Independent,0,0,0,0,0,0,0,0,0,0,0,0,1,0,0,0,1,0,2,No,60.5498646477259,-145.74962083997
Mt. Holiday,https://www.skiresort.info/ski-resort/mt-holiday/,40.0,689,899,210,3.0,Michigan,45.0,120,Independent,0,0,0,0,0,0,0,0,0,0,0,2,0,0,0,0,0,0,2,No,44.7434259068089,-85.5145007762381
Mt. Holly,https://www.skiresort.info/ski-resort/mt-holly/,69.0,968,1247,279,4.0,Michigan,100.0,42,Wisconsin Resorts,0,0,0,0,0,0,0,2,2,2,0,1,0,0,0,0,4,2,13,No,42.8308312552577,-83.5643272460833
Mt. Hood Meadows,https://www.skiresort.info/ski-resort/mt-hood-meadows/,164.0,4521,7300,2779,56.0,Oregon,2150.0,430,Independent,0,0,0,0,0,1,0,5,1,0,0,3,0,0,0,0,0,1,11,No,45.3317162898854,-121.665268345274
Mt. Hood Skibowl,https://www.skiresort.info/ski-resort/mt-hood-skibowl/,89.0,3675,4954,1280,40.0,Oregon,960.0,300,Independent,0,0,0,0,0,0,0,0,0,0,0,4,0,0,0,1,2,2,9,No,45.301626724377314, -121.7734363352967
Mt. Jefferson,https://www.skiresort.info/ski-resort/mt-jefferson/,45.0,420,755,335,6.0,Maine,160.0,75,Independent,0,0,0,0,0,0,0,0,0,0,0,0,0,1,0,0,1,0,2,Yes,45.3574993343982,-68.2838438205781
Mount Kato,https://www.skiresort.info/ski-resort/mt-kato/,59.0,791,1027,236,7.0,Minnesota,65.0,50,Independent,0,0,0,0,0,0,0,0,5,0,0,3,0,0,0,0,0,1,9,No,44.1330682315049,-94.0334010470907
Mt. La Crosse,https://www.skiresort.info/ski-resort/mt-la-crosse/,75.0,722,1220,499,4.0,Wisconsin,100.0,30,Independent,0,0,0,0,0,0,0,0,0,0,0,3,0,0,0,0,0,1,4,No,43.7435160202581,-91.1829432810558
Mt. Lemmon,https://www.skiresort.info/ski-resort/mt-lemmon-ski-valley/,69.0,8274,9022,748,5.0,Arizona,200.0,180,Independent,0,0,0,0,0,0,0,0,0,0,0,2,0,0,0,0,1,0,3,No,32.4473469535792,-110.781571829789
Mt. McSauba,https://www.skiresort.info/ski-resort/mt-mcsauba/,23.0,607,709,102,0.4,Michigan,80.0,130,Independent,0,0,0,0,0,0,0,0,0,0,0,0,0,0,0,0,4,0,4,Yes,45.3359105594195,-85.2435563436395
Mount Peter,https://www.skiresort.info/ski-resort/mount-peter/,79.0,804,1083,279,2.0,New York,60.0,50,Independent,0,0,0,0,0,0,0,0,1,0,0,2,0,0,0,0,0,3,6,No,41.2476651730598,-74.2951373861055
Mount Pisgah,https://www.skiresort.info/ski-resort/mt-pisgah/,25.0,1772,2057,285,1.0,New York,15.0,60,Independent,0,0,0,0,0,0,0,0,0,0,0,0,0,1,0,0,1,0,2,Yes,44.3455513604065,-74.1256385804324
Mount Pleasant,https://www.skiresort.info/ski-resort/mount-pleasant/,40.0,1181,1496,315,3.0,Pennsylvania,35.0,150,Independent,0,0,0,0,0,0,0,0,0,1,0,0,0,0,0,1,0,1,3,No,41.85189126928,-80.071202080451
Mt. Rose,https://www.skiresort.info/ski-resort/mt-rose/,179.0,7897,9701,1804,37.0,Nevada,1200.0,350,Independent,0,0,0,0,0,2,0,1,2,1,0,0,0,0,0,0,0,3,9,No,39.3185041773208,-119.871105340327
Mt. Shasta Ski Park,https://www.skiresort.info/ski-resort/mt-shasta-ski-park/,99.0,5479,7497,2018,14.0,California,635.0,157,Independent,0,0,0,0,0,0,0,0,1,3,0,0,0,0,0,0,0,2,6,No,41.3211305700917,-122.203663705955
Mount Ski Gull,https://www.skiresort.info/ski-resort/mount-ski-gull/,45.0,1263,1453,190,1.0,Minnesota,55.0,50,Independent,0,0,0,0,0,0,0,0,0,1,0,0,0,0,0,0,1,1,3,No,46.447401766923,-94.3778316462264
Mount Snow,https://www.skiresort.info/ski-resort/mount-snow/,149.0,1919,3593,1673,37.0,Vermont,601.0,150,Vail Resorts,0,0,0,0,0,2,0,4,0,5,0,2,0,0,0,0,1,5,19,No,42.96777334596,-72.894646616674
Mount Southington,https://www.skiresort.info/ski-resort/mt-southington/,68.0,203,568,364,4.0,Connecticut,51.0,80,Independent,0,0,0,0,0,0,0,0,0,3,0,1,0,0,0,0,0,3,7,No,41.582585375735,-72.9249831100412
Mt. Spokane,https://www.skiresort.info/ski-resort/mt-spokane/,80.0,3888,5889,2001,16.0,Washington,1704.0,300,Independent,0,0,0,0,0,0,0,0,0,1,0,5,0,0,0,0,1,1,8,No,47.9214791384284,-117.09602107211
Mount Sunapee,https://www.skiresort.info/ski-resort/mt-sunapee/,119.0,1263,2717,1453,19.0,New Hampshire,233.0,130,Vail Resorts,0,0,0,0,0,0,0,2,1,2,0,0,0,0,0,0,0,3,8,No,43.3309713253797,-72.0807835697123
Mt. Zion,https://www.skiresort.info/ski-resort/mt-zion-hill/,45.0,1427,1726,299,2.0,Michigan,20.0,200,Independent,0,0,0,0,0,0,0,0,0,0,0,1,0,0,0,0,3,0,4,No,46.4740776485022,-90.1629500858359